<?xml version="1.0" encoding="utf-8"?>
<ArrayOfVolunteer xmlns:xsi="http://www.w3.org/2001/XMLSchema-instance" xmlns:xsd="http://www.w3.org/2001/XMLSchema">
  <Volunteer>
    <Id>215348145</Id>
    <FullName>Oded</FullName>
    <MobilePhone>0549699198</MobilePhone>
    <Email>ofeko@yatmal.co.il</Email>
    <Password>T2RlZEBAMjI5MA==</Password>
    <FullAddress>Hagefen 28 Dimona</FullAddress>
    <Latitude>31.0648736</Latitude>
    <Longitude>35.025687</Longitude>
    <Role>Volunteer</Role>
    <IsActive>true</IsActive>
    <MaxDistanceForCall>20</MaxDistanceForCall>
    <DistanceType>AirDistance</DistanceType>
  </Volunteer>
	<Volunteer>
		<Id>123456782</Id>
		<FullName>Cohen</FullName>
		<MobilePhone>0546789123</MobilePhone>
		<Email>eli.cohen@example.com</Email>
		<Password>T2RlZDIyOTAjIyMj</Password>
		<FullAddress>123 Herzl Tel Aviv Israel</FullAddress>
		<Latitude>32.0519</Latitude>
		<Longitude>34.770346</Longitude>
		<Role>Manager</Role>
		<IsActive>true</IsActive>
		<MaxDistanceForCall>14</MaxDistanceForCall>
		<DistanceType>AirDistance</DistanceType>
	</Volunteer>
	<Volunteer>
		<Id>123456782</Id>
		<FullName>Avi Mizrahi</FullName>
		<MobilePhone>0541234567</MobilePhone>
		<Email>avi.mizrahi@example.com</Email>
		<Password>P@ssw0rd123!@#</Password>
		<FullAddress>10 Allenby Tel Aviv Israel</FullAddress>
		<Latitude>32.06256</Latitude>
		<Longitude>34.77086</Longitude>
		<Role>Volunteer</Role>
		<IsActive>true</IsActive>
		<MaxDistanceForCall>10</MaxDistanceForCall>
		<DistanceType>AirDistance</DistanceType>
	</Volunteer>
	<Volunteer>
		<Id>987654324</Id>
		<FullName>Maya Levi</FullName>
		<MobilePhone>0548765432</MobilePhone>
		<Email>maya.levi@example.com</Email>
		<Password>S7tr0ngP@ssW0rd!</Password>
		<FullAddress>5 Jabotinsky Rishon Lezion Israel</FullAddress>
		<Latitude>31.973001</Latitude>
		<Longitude>34.792499</Longitude>
		<Role>Manager</Role>
		<IsActive>true</IsActive>
		<MaxDistanceForCall>20</MaxDistanceForCall>
		<DistanceType>WalkingDistance</DistanceType>
	</Volunteer>
	<Volunteer>
		<Id>345123459</Id>
		<FullName>Dani Cohen</FullName>
		<MobilePhone>0542345678</MobilePhone>
		<Email>dani.cohen@example.com</Email>
		<Password>Str0ng@D@ni2024</Password>
		<FullAddress>12 Rothschild Haifa Israel</FullAddress>
		<Latitude>32.8192</Latitude>
		<Longitude>34.9985</Longitude>
		<Role>Volunteer</Role>
		<IsActive>false</IsActive>
		<MaxDistanceForCall>15</MaxDistanceForCall>
		<DistanceType>DrivingDistance</DistanceType>
	</Volunteer>
	<Volunteer>
		<Id>458236742</Id>
		<FullName>Sarit Ashkenazi</FullName>
		<MobilePhone>0543456789</MobilePhone>
		<Email>sarit.ashkenazi@example.com</Email>
		<Password>M@sterS@rit12345</Password>
		<FullAddress>100 Haneviim Jerusalem Israel</FullAddress>
		<Latitude>31.7767</Latitude>
		<Longitude>35.2348</Longitude>
		<Role>Manager</Role>
		<IsActive>true</IsActive>
		<MaxDistanceForCall>25</MaxDistanceForCall>
		<DistanceType>WalkingDistance</DistanceType>
	</Volunteer>
	<Volunteer>
		<Id>321654980</Id>
		<FullName>Roni Shahar</FullName>
		<MobilePhone>0544567890</MobilePhone>
		<Email>roni.shahar@example.com</Email>
		<Password>P@ssRoniW0rd!</Password>
		<FullAddress>3 Begin Ashdod Israel</FullAddress>
		<Latitude>31.8044</Latitude>
		<Longitude>34.6553</Longitude>
		<Role>Volunteer</Role>
		<IsActive>true</IsActive>
		<MaxDistanceForCall>12</MaxDistanceForCall>
		<DistanceType>AirDistance</DistanceType>
	</Volunteer>
	<Volunteer>
		<Id>852369743</Id>
		<FullName>Omer David</FullName>
		<MobilePhone>0545678901</MobilePhone>
		<Email>omer.david@example.com</Email>
		<Password>Omer!StrongW0rd99</Password>
		<FullAddress>8 Shazar Beersheba Israel</FullAddress>
		<Latitude>31.2435</Latitude>
		<Longitude>34.7936</Longitude>
		<Role>Manager</Role>
		<IsActive>false</IsActive>
		<MaxDistanceForCall>18</MaxDistanceForCall>
		<DistanceType>DrivingDistance</DistanceType>
	</Volunteer>
	<Volunteer>
		<Id>963258744</Id>
		<FullName>Yael Golan</FullName>
		<MobilePhone>0546789012</MobilePhone>
		<Email>yael.golan@example.com</Email>
		<Password>Y@el2024@123</Password>
		<FullAddress>14 Hashalom Herzliya Israel</FullAddress>
		<Latitude>32.1626</Latitude>
		<Longitude>34.8447</Longitude>
		<Role>Volunteer</Role>
		<IsActive>true</IsActive>
		<MaxDistanceForCall>22</MaxDistanceForCall>
		<DistanceType>WalkingDistance</DistanceType>
	</Volunteer>
	<Volunteer>
		<Id>123478950</Id>
		<FullName>David Green</FullName>
		<MobilePhone>0547890123</MobilePhone>
		<Email>david.green@example.com</Email>
		<Password>Dav!d@2024Gr33n</Password>
		<FullAddress>45 Kikar Rabin Tel Aviv Israel</FullAddress>
		<Latitude>32.0833</Latitude>
		<Longitude>34.7805</Longitude>
		<Role>Manager</Role>
		<IsActive>true</IsActive>
		<MaxDistanceForCall>30</MaxDistanceForCall>
		<DistanceType>AirDistance</DistanceType>
	</Volunteer>
	<Volunteer>
		<Id>741852966</Id>
		<FullName>Hila Bar</FullName>
		<MobilePhone>0548901234</MobilePhone>
		<Email>hila.bar@example.com</Email>
		<Password>Hila$B@rStrong</Password>
		<FullAddress>9 Arlozorov Tel Aviv Israel</FullAddress>
		<Latitude>32.0831</Latitude>
		<Longitude>34.7821</Longitude>
		<Role>Volunteer</Role>
		<IsActive>false</IsActive>
		<MaxDistanceForCall>14</MaxDistanceForCall>
		<DistanceType>DrivingDistance</DistanceType>
	</Volunteer>
	<Volunteer>
		<Id>369258140</Id>
		<FullName>Shira Neuman</FullName>
		<MobilePhone>0549012345</MobilePhone>
		<Email>shira.neuman@example.com</Email>
		<Password>Sh1r@P@ssW0rd!2</Password>
		<FullAddress>20 Dizengoff Tel Aviv Israel</FullAddress>
		<Latitude>32.0743</Latitude>
		<Longitude>34.7758</Longitude>
		<Role>Manager</Role>
		<IsActive>true</IsActive>
		<MaxDistanceForCall>25</MaxDistanceForCall>
		<DistanceType>WalkingDistance</DistanceType>
	</Volunteer>
</ArrayOfVolunteer>